{
  "type": "FeatureCollection",
  "features": [
    {
      "type": "Feature",
      "geometry": { "type": "Point", "coordinates": [76.9558, 11.0168] },
      "properties": {
        "id": "11111111-1111-1111-1111-000000000001",
        "name": "Ravi Kumar",
        "email": "ravi@demofarm.com",
        "farm_name": "Sunrise Organic Farm",
        "farm_size_hectares": 8.5,
        "quality_rating": 4.7,
        "total_transactions": 23
      }
    },
    {
      "type": "Feature",
      "geometry": { "type": "Point", "coordinates": [77.0363, 11.1271] },
      "properties": {
        "id": "11111111-1111-1111-1111-000000000002",
        "name": "Priya Nair",
        "email": "priya@greenvale.com",
        "farm_name": "Green Vale Agri",
        "farm_size_hectares": 12.0,
        "quality_rating": 4.3,
        "total_transactions": 15
      }
    },
    {
      "type": "Feature",
      "geometry": { "type": "Point", "coordinates": [76.8742, 10.9432] },
      "properties": {
        "id": "11111111-1111-1111-1111-000000000003",
        "name": "Suresh Babu",
        "email": "suresh@hillsidefarm.com",
        "farm_name": "Hillside Produce",
        "farm_size_hectares": 5.2,
        "quality_rating": 3.9,
        "total_transactions": 8
      }
    },
    {
      "type": "Feature",
      "geometry": { "type": "Point", "coordinates": [77.1245, 11.2104] },
      "properties": {
        "id": "11111111-1111-1111-1111-000000000004",
        "name": "Meena Devi",
        "email": "meena@valleyfarm.com",
        "farm_name": "Valley Greens",
        "farm_size_hectares": 6.8,
        "quality_rating": 4.5,
        "total_transactions": 31
      }
    },
    {
      "type": "Feature",
      "geometry": { "type": "Point", "coordinates": [76.7891, 10.8567] },
      "properties": {
        "id": "11111111-1111-1111-1111-000000000005",
        "name": "Arjun Pillai",
        "email": "arjun@tropicalfarm.com",
        "farm_name": "Tropical Harvest",
        "farm_size_hectares": 9.1,
        "quality_rating": 4.1,
        "total_transactions": 19
      }
    }
  ]
}
